[
  {
    "name": "Toripaitan Ramen Kinmugi Amemura Branch",
    "lat": 34.6727491,
    "lng": 135.4971206
  },
  {
    "name": "Tabac Store たばこ",
    "lat": 35.715969199999996,
    "lng": 139.79242829999998
  },
  {
    "name": "Health Gym（ヘルスジム）浅草店",
    "lat": 35.711776,
    "lng": 139.7922624
  },
  {
    "name": "yakiniku fukuju akihabara",
    "lat": 35.6987603,
    "lng": 139.7722767
  },
  {
    "name": "Bic Camera",
    "lat": 35.677100599999996,
    "lng": 139.7367753
  },
  {
    "name": "Pokémon Center Mega Tokyo & Pikachu Sweets",
    "lat": 35.7289056,
    "lng": 139.7193245
  },
  {
    "name": "Pokémon Center Skytree Town Solamachi East Yard 4th floor",
    "lat": 35.7103448,
    "lng": 139.8126119
  },
  {
    "name": "Tokyo Hobby Center anime store",
    "lat": 35.7030694,
    "lng": 139.7721637
  },
  {
    "name": "Pokémon Center Tokyo DX",
    "lat": 35.6802902,
    "lng": 139.7742695
  },
  {
    "name": "Pokémon Store Tokyo Station Shop",
    "lat": 35.6825031,
    "lng": 139.7687128
  },
  {
    "name": "hair salon&make FLOW SHINJUKU",
    "lat": 35.696923,
    "lng": 139.7029959
  },
  {
    "name": "シンチョン ソルロンタン 신촌설렁탕 Sinchon Seolleongtang",
    "lat": 35.6984755,
    "lng": 139.7041956
  },
  {
    "name": "Dropped pin",
    "lat": 35.6953813,
    "lng": 139.7024294
  },
  {
    "name": "Loutre otter cafe",
    "lat": 35.006618599999996,
    "lng": 135.7668143
  },
  {
    "name": "Fuji Safari Park",
    "lat": 35.2589772,
    "lng": 138.8116172
  },
  {
    "name": "Arashiyama Monkey Park Iwatayama",
    "lat": 35.011395,
    "lng": 135.6766245
  },
  {
    "name": "Osaka Castle Park",
    "lat": 34.6864797,
    "lng": 135.5262114
  },
  {
    "name": "Tenryu-ji",
    "lat": 35.0158379,
    "lng": 135.6737654
  },
  {
    "name": "Kimono Forest",
    "lat": 35.0152682,
    "lng": 135.6783695
  },
  {
    "name": "Fushimi Inari Taisha",
    "lat": 34.9676945,
    "lng": 135.7791876
  },
  {
    "name": "Kinkaku-ji",
    "lat": 35.03937,
    "lng": 135.7292431
  },
  {
    "name": "Kyoto Gyoen National Garden",
    "lat": 35.0230617,
    "lng": 135.7634452
  },
  {
    "name": "Kiyomizu-dera",
    "lat": 34.9946662,
    "lng": 135.784661
  },
  {
    "name": "Heian Jingu Shrine",
    "lat": 35.0159823,
    "lng": 135.7824263
  },
  {
    "name": "Yasaka Shrine",
    "lat": 35.0036559,
    "lng": 135.7785534
  },
  {
    "name": "Ginkaku-ji",
    "lat": 35.0270213,
    "lng": 135.7982058
  },
  {
    "name": "Nanzen-ji",
    "lat": 35.0114138,
    "lng": 135.7944841
  },
  {
    "name": "Taishogun Shopping Street - Ichijo Yokai Street",
    "lat": 35.0261546,
    "lng": 135.7339724
  },
  {
    "name": "Vampire Café",
    "lat": 35.6704655,
    "lng": 139.7626722
  },
  {
    "name": "Toei Kyoto Studio Park",
    "lat": 35.016472799999995,
    "lng": 135.7081163
  },
  {
    "name": "ONE PIECE FITNESS BragMen",
    "lat": 35.6617841,
    "lng": 139.70042139999998
  },
  {
    "name": "Nijō Castle",
    "lat": 35.0140379,
    "lng": 135.7484258
  },
  {
    "name": "Enryaku-ji Temple",
    "lat": 35.0704634,
    "lng": 135.8411275
  },
  {
    "name": "Rainbow Dome Hanahaku",
    "lat": 34.7145544,
    "lng": 135.5881671
  },
  {
    "name": "Darts＆Sports Bar｜Bar Rhythm Akihabara Denkigai",
    "lat": 35.6989811,
    "lng": 139.77163529999999
  },
  {
    "name": "RBCB - RockBarCherryBomb",
    "lat": 34.6712044,
    "lng": 135.505204
  },
  {
    "name": "Ammona",
    "lat": 34.67091,
    "lng": 135.504388
  },
  {
    "name": "Kobe Nunobiki Herb Gardens & Ropeway",
    "lat": 34.7044275,
    "lng": 135.1938755
  },
  {
    "name": "Osaka Museum of History",
    "lat": 34.682614099999995,
    "lng": 135.5207975
  },
  {
    "name": "Baseball Land Tomoi",
    "lat": 34.6449912,
    "lng": 135.5904024
  },
  {
    "name": "Osaka Tenmangu Shrine",
    "lat": 34.696057599999996,
    "lng": 135.5126556
  },
  {
    "name": "Dotonbori",
    "lat": 34.6687234,
    "lng": 135.5012971
  },
  {
    "name": "Osaka Museum of Natural History",
    "lat": 34.6104087,
    "lng": 135.5226625
  },
  {
    "name": "Yakiniku King",
    "lat": 34.6185439,
    "lng": 135.5382066
  },
  {
    "name": "Osaka Castle",
    "lat": 34.6872571,
    "lng": 135.5258546
  },
  {
    "name": "One-karubi Amagasaki",
    "lat": 34.7325897,
    "lng": 135.4379324
  },
  {
    "name": "Yokohama Hakkeijima Sea Paradise",
    "lat": 35.336458,
    "lng": 139.6452299
  },
  {
    "name": "Harry Potter Stairs & Time Turner",
    "lat": 35.6725379,
    "lng": 139.7357921
  },
  {
    "name": "Harry Potter Cafe Window",
    "lat": 35.672664499999996,
    "lng": 139.73655879999998
  },
  {
    "name": "Harry Potter Cafe",
    "lat": 35.673078,
    "lng": 139.7362765
  },
  {
    "name": "Nijigen no Mori x Kimetsu no Yaiba “Night Walk Natagumoyama”",
    "lat": 34.5768942,
    "lng": 135.0087957
  },
  {
    "name": "Nijigen no Mori",
    "lat": 34.575173,
    "lng": 135.00075099999998
  },
  {
    "name": "Monster Japan",
    "lat": 35.6482149,
    "lng": 139.708476
  },
  {
    "name": "Itto-seki Split Boulder",
    "lat": 34.7263544,
    "lng": 135.9598269
  },
  {
    "name": "Nintendo Tokyo",
    "lat": 35.6621161,
    "lng": 139.6986385
  },
  {
    "name": "Ninja Experience Cafe Harajuku In Tokyo",
    "lat": 35.6709253,
    "lng": 139.7049845
  },
  {
    "name": "Toei Animation Museum",
    "lat": 35.752398299999996,
    "lng": 139.5944475
  },
  {
    "name": "Genki Taisho Wagyu - Halal",
    "lat": 35.6950967,
    "lng": 139.7051208
  },
  {
    "name": "KARAOKE BAR chakura",
    "lat": 35.69769,
    "lng": 139.7040811
  },
  {
    "name": "Karaoke & Darts BAR KARAOKE HUNDRED IKEBUKURO",
    "lat": 35.731912699999995,
    "lng": 139.70958299999998
  },
  {
    "name": "LUXURY BAR & KARAOKE PALACE SHIBUYA",
    "lat": 35.6596871,
    "lng": 139.7014748
  },
  {
    "name": "Hogwarts Castle",
    "lat": 34.6686543,
    "lng": 135.43152849999998
  },
  {
    "name": "music bar 45",
    "lat": 35.6562704,
    "lng": 139.70108869999999
  },
  {
    "name": "Flying Bumblebee",
    "lat": 35.6501322,
    "lng": 139.7046675
  },
  {
    "name": "Rastaman's Cafe",
    "lat": 35.7146252,
    "lng": 139.7932702
  },
  {
    "name": "HUB Asakusa",
    "lat": 35.711891099999995,
    "lng": 139.792793
  },
  {
    "name": "Amusement Casino Bar NANA",
    "lat": 35.728833,
    "lng": 139.77166219999998
  },
  {
    "name": "BAR PSY",
    "lat": 35.6945628,
    "lng": 139.7025755
  },
  {
    "name": "Deathmatch in Hell",
    "lat": 35.6939081,
    "lng": 139.7049309
  },
  {
    "name": "EXBAR TOKYO plus",
    "lat": 35.6898815,
    "lng": 139.70226599999998
  },
  {
    "name": "Irish Pub An Sólás",
    "lat": 35.6835339,
    "lng": 139.7040599
  },
  {
    "name": "Shamrock",
    "lat": 35.6640734,
    "lng": 139.7307376
  },
  {
    "name": "Hobgoblin Roppongi British Pub",
    "lat": 35.661901,
    "lng": 139.73624999999998
  },
  {
    "name": "COCORO DOKORO (shibuya music bar)",
    "lat": 35.6624811,
    "lng": 139.6969814
  },
  {
    "name": "Start Bar",
    "lat": 35.656157799999995,
    "lng": 139.7014084
  },
  {
    "name": "WARP SHINJUKU",
    "lat": 35.6952253,
    "lng": 139.70130699999999
  },
  {
    "name": "PIZZERIA IL TAMBURELLO",
    "lat": 35.6886127,
    "lng": 139.7788553
  },
  {
    "name": "Jack 37 Burger",
    "lat": 35.6921549,
    "lng": 139.7799063
  },
  {
    "name": "LUXE BURGERS NINGYOCHO",
    "lat": 35.687030199999995,
    "lng": 139.77822989999999
  },
  {
    "name": "Flapjack's Breakfast and Lunch",
    "lat": 35.690246,
    "lng": 139.785773
  },
  {
    "name": "Unagi Kikuchi",
    "lat": 35.6935024,
    "lng": 139.77853299999998
  },
  {
    "name": "Utsuke",
    "lat": 35.6912935,
    "lng": 139.7818641
  },
  {
    "name": "焼き鳥・鰻",
    "lat": 35.6938556,
    "lng": 139.78749109999998
  },
  {
    "name": "Yamagasa no Ryū",
    "lat": 35.697088799999996,
    "lng": 139.7863664
  },
  {
    "name": "Dragon Chinese Dumpling restaurant Kuramae",
    "lat": 35.7020495,
    "lng": 139.78783099999998
  },
  {
    "name": "Chilltoco Burger",
    "lat": 35.7054779,
    "lng": 139.7898272
  },
  {
    "name": "Komakata Dojo",
    "lat": 35.7075046,
    "lng": 139.7950124
  },
  {
    "name": "PIZZA LINDA",
    "lat": 35.7070292,
    "lng": 139.79148039999998
  },
  {
    "name": "3B Tacos",
    "lat": 35.707821599999995,
    "lng": 139.7933885
  },
  {
    "name": "Kobe beef Daia",
    "lat": 35.7111059,
    "lng": 139.795686
  },
  {
    "name": "To-ji Temple",
    "lat": 34.9803395,
    "lng": 135.7476935
  },
  {
    "name": "Arashiyama",
    "lat": 35.009449,
    "lng": 135.666773
  },
  {
    "name": "HARRY HARAJUKU terrace",
    "lat": 35.669190799999996,
    "lng": 139.70800739999999
  },
  {
    "name": "Dogenzaka Church -The Church-",
    "lat": 35.658597199999996,
    "lng": 139.6969009
  },
  {
    "name": "Ichiran Shibuya",
    "lat": 35.6611185,
    "lng": 139.701013
  },
  {
    "name": "Nakamise Shopping Street",
    "lat": 35.711841299999996,
    "lng": 139.7964542
  },
  {
    "name": "Tokyo Joypolis",
    "lat": 35.628659999999996,
    "lng": 139.775364
  },
  {
    "name": "Naruto x Boruto park Nijigen no mori",
    "lat": 34.575579,
    "lng": 135.0046027
  },
  {
    "name": "Kiyosumi Gardens",
    "lat": 35.6809021,
    "lng": 139.7972649
  },
  {
    "name": "עיר הטוקיו דום",
    "lat": 35.704369299999996,
    "lng": 139.75425099999998
  },
  {
    "name": "Alpaca cafe",
    "lat": 35.7327374,
    "lng": 139.7046704
  },
  {
    "name": "STREET KART Akihabara 1st",
    "lat": 35.7024565,
    "lng": 139.7734935
  },
  {
    "name": "Shibuya Parco",
    "lat": 35.662048399999996,
    "lng": 139.6987767
  },
  {
    "name": "Shinjuku Golden-Gai",
    "lat": 35.6941118,
    "lng": 139.70476109999998
  },
  {
    "name": "Meiji Jingu Gaien Gingko Avenue",
    "lat": 35.6727172,
    "lng": 139.7205745
  },
  {
    "name": "Maxell Aqua Park Shinagawa",
    "lat": 35.6282839,
    "lng": 139.7352393
  },
  {
    "name": "Meguro River Cherry Blossoms Promenade",
    "lat": 35.636208499999995,
    "lng": 139.7090001
  },
  {
    "name": "Meiji Jingu",
    "lat": 35.6763976,
    "lng": 139.6993259
  },
  {
    "name": "Yoyogi Park",
    "lat": 35.6700649,
    "lng": 139.6949656
  },
  {
    "name": "Tokyo Tower",
    "lat": 35.6585805,
    "lng": 139.7454329
  },
  {
    "name": "Shiba Park",
    "lat": 35.6561695,
    "lng": 139.7483555
  },
  {
    "name": "Tokyo Summerland",
    "lat": 35.7179766,
    "lng": 139.2742214
  },
  {
    "name": "Trampoline Park Mr . JUMP Sagamihara",
    "lat": 35.5615932,
    "lng": 139.39978729999999
  },
  {
    "name": "Forest Adventure YOKOHAMA",
    "lat": 35.5045675,
    "lng": 139.52308779999998
  },
  {
    "name": "Mount Takao",
    "lat": 35.6254126,
    "lng": 139.2437385
  },
  {
    "name": "Sagamiko MORI MORI",
    "lat": 35.604876,
    "lng": 139.201065
  },
  {
    "name": "Hinadoriyama",
    "lat": 35.6281683,
    "lng": 139.370309
  },
  {
    "name": "Ninja Trick House In Tokyo",
    "lat": 35.6964882,
    "lng": 139.70359009999999
  },
  {
    "name": "THE TOKYO MATRIX: DUNGEON SPIRAL",
    "lat": 35.6959672,
    "lng": 139.7005495
  },
  {
    "name": "Akihabara Electric Town",
    "lat": 35.699647299999995,
    "lng": 139.7713703
  },
  {
    "name": "Harajuku Mame Shiba Cafe",
    "lat": 35.6709467,
    "lng": 139.7055971
  },
  {
    "name": "KYOTO MAMESHIBA CAFE",
    "lat": 35.0041039,
    "lng": 135.7667817
  },
  {
    "name": "Nagai Botanical Garden",
    "lat": 34.6123152,
    "lng": 135.5243669
  },
  {
    "name": "The Making of Harry Potter - Warner Bros. Studio Tour Tokyo",
    "lat": 35.745183,
    "lng": 139.6460909
  },
  {
    "name": "Olinas Mall",
    "lat": 35.7007271,
    "lng": 139.8159403
  },
  {
    "name": "Daikokuyu Oshiage Onsen",
    "lat": 35.7050245,
    "lng": 139.8136356
  },
  {
    "name": "Tokyo Skytree",
    "lat": 35.7100627,
    "lng": 139.8107004
  },
  {
    "name": "Asakusa Hanayashiki",
    "lat": 35.7154609,
    "lng": 139.7948774
  },
  {
    "name": "Yanaka Ginza",
    "lat": 35.7276934,
    "lng": 139.7657232
  },
  {
    "name": "Tokyo National Museum",
    "lat": 35.7188351,
    "lng": 139.7765215
  },
  {
    "name": "Ueno Ameyoko Shopping Street",
    "lat": 35.7090028,
    "lng": 139.7746259
  },
  {
    "name": "Imperial Palace",
    "lat": 35.685175,
    "lng": 139.75279949999998
  },
  {
    "name": "Yushima Seido",
    "lat": 35.7008076,
    "lng": 139.7664557
  },
  {
    "name": "Animate Akihabara",
    "lat": 35.7004944,
    "lng": 139.7717427
  },
  {
    "name": "Kidzania Tokyo",
    "lat": 35.6551508,
    "lng": 139.7930083
  },
  {
    "name": "Uguisu Waterfall",
    "lat": 34.6891367,
    "lng": 135.873537
  },
  {
    "name": "Nōmizo Falls and Kameiwa Cave",
    "lat": 35.185496799999996,
    "lng": 140.05991749999998
  },
  {
    "name": "滝見苑けんこう村 ごりやくの湯",
    "lat": 35.213849499999995,
    "lng": 140.1855908
  },
  {
    "name": "Nunobiki Waterfalls (Ontaki / Meotodaki)",
    "lat": 34.7097005,
    "lng": 135.1938164
  },
  {
    "name": "CAPPINESS Capybara Cafe",
    "lat": 35.7100471,
    "lng": 139.6951459
  },
  {
    "name": "Oyama Senmaida",
    "lat": 35.1296199,
    "lng": 139.9743744
  },
  {
    "name": "Ichihara Elephant Kingdom",
    "lat": 35.3547927,
    "lng": 140.182322
  },
  {
    "name": "Tokyo German Village",
    "lat": 35.405662899999996,
    "lng": 140.0541599
  },
  {
    "name": "Tanzan Jinja",
    "lat": 34.465406699999996,
    "lng": 135.861584
  },
  {
    "name": "Nintendo Museum",
    "lat": 34.892798899999995,
    "lng": 135.784166
  },
  {
    "name": "Arashiyama Bamboo Forest",
    "lat": 35.0168187,
    "lng": 135.67130129999998
  },
  {
    "name": "Mount Hiei",
    "lat": 35.0622477,
    "lng": 135.8315317
  },
  {
    "name": "Ramen Kosan Main Store",
    "lat": 34.6521628,
    "lng": 135.4718033
  },
  {
    "name": "Osaka Aquarium Kaiyukan",
    "lat": 34.6545182,
    "lng": 135.4289645
  },
  {
    "name": "Nara Park",
    "lat": 34.685047,
    "lng": 135.843012
  },
  {
    "name": "Cat Cafe MONTA",
    "lat": 35.7121002,
    "lng": 139.797971
  },
  {
    "name": "cafe capyba",
    "lat": 35.7199925,
    "lng": 139.8143766
  },
  {
    "name": "Onjuku Chuo Beach",
    "lat": 35.183524999999996,
    "lng": 140.35447689999998
  },
  {
    "name": "Awamata Waterfall",
    "lat": 35.2192125,
    "lng": 140.1824139
  },
  {
    "name": "Asakusa Shrine",
    "lat": 35.715166499999995,
    "lng": 139.7974389
  },
  {
    "name": "Edo-Tokyo Museum",
    "lat": 35.6964553,
    "lng": 139.7964685
  },
  {
    "name": "Universal Studios Japan",
    "lat": 34.6656768,
    "lng": 135.4323185
  },
  {
    "name": "Ghibli Museum",
    "lat": 35.696238,
    "lng": 139.5704317
  },
  {
    "name": "Shinjuku Gyoen National Garden",
    "lat": 35.685176299999995,
    "lng": 139.71005169999998
  },
  {
    "name": "Shibuya Scramble Crossing",
    "lat": 35.659482,
    "lng": 139.7005596
  },
  {
    "name": "Sensō-ji",
    "lat": 35.7147651,
    "lng": 139.7966553
  }
]